{
  "cinemas": [

    {
      "name": "Өргөө-1",

      "icon": "166",
      "location": {
        "address": {
          "street": "Бага тойруу",
          "city": "Ulaanbaatar",
          "zipCode": 14200
        }
      },
      "opening": "9:00",
      "closing": "01:00",
      "image": "https://www.zendmentravel.com/wp-content/uploads/2018/05/Urguu_3-original-original-.jpg"
    },
    {
      "name": "Өргөө-2 IT парк",

      "icon": "166",
      "location": {
        "address": {
          "street": "Ард Аюушийн өргөн чөлөө ",
          "city": "Ulaanbaatar",
          "zipCode": 16091
        }
      },
      "opening": "9:00",
      "closing": "01:00",
      "image": "https://visitulaanbaatar.net/storage/uploads/2018/12/urgoo-3.jpg"
    },
    {
      "name": "Өргөө 3 IMAX Шангри-Ла Төв",

      "icon": "166",
      "location": {
        "address": {
          "street": "Олимпын гудамж",
          "city": "Ulaanbaatar",
          "zipCode": 14241
        }
      },
      "opening": "9:00",
      "closing": "01:00",
      "image": "https://media-cdn.tripadvisor.com/media/photo-s/10/f8/be/f6/urgoo-3-cinema-imax.jpg"
    },
    {
      "name": "Өргөө 4 Эрдэнэт хот",

      "icon": "166",
      "location": {
        "address": {
          "street": "Бага тойруу",
          "city": "Ulaanbaatar",
          "zipCode": 14200
        }
      },
      "opening": "9:00",
      "closing": "01:00",
      "image": "https://i.pinimg.com/originals/d2/d1/65/d2d16526530e09bc12803672ad407996.jpg"
    },
    {
      "name": "Өргөө 5 Laser Cinema",

      "icon": "166",
      "location": {
        "address": {
          "street": "Бага тойруу",
          "city": "Ulaanbaatar",
          "zipCode": 14200
        }
      },
      "opening": "9:00",
      "closing": "01:00",
      "image": "http://shangrilacentreub.mn/media/shangrila/content/edited_OdKo_IMAX.JPG"
    },
    {
      "name": "Өргөө 6 Дархан хот",

      "icon": "166",
      "location": {
        "address": {
          "street": "Бага тойруу",
          "city": "Ulaanbaatar",
          "zipCode": 14200
        }
      },
      "opening": "9:00",
      "closing": "01:00",
      "image": "https://mongolia.com/wp-content/uploads/2020/03/dr_016.jpg"
    },
    {
      "name": "Өргөө 7 Парк-Од Молл",

      "icon": "166",
      "location": {
        "address": {
          "street": "Их Хүрээ Гудамж ",
          "city": "Ulaanbaatar",
          "zipCode": 13312
        }
      },
      "opening": "9:00",
      "closing": "01:00",
      "image": "https://scontent.fuln2-2.fna.fbcdn.net/v/t39.30808-6/384668348_696215089201617_744858745724361498_n.jpg?stp=cp6_dst-jpg&_nc_cat=111&ccb=1-7&_nc_sid=5f2048&_nc_ohc=folBX0RVAX4AX87O44g&_nc_ht=scontent.fuln2-2.fna&oh=00_AfCCUZ1MRAwc-OsqJS4Fv8EPl4JjrWHvTC8g_qx0sf4sGw&oe=65FD4593"
    },
    {
      "name": "Хүннү",

      "icon": "166",
      "location": {
        "address": {
          "street": "Яармагийн зам",
          "city": "Ulaanbaatar",
          "zipCode": 17110
        }
      },
      "opening": "9:00",
      "closing": "01:00",
      "image": "https://cdn6.aptoide.com/imgs/a/d/5/ad5233230d9d687e709b49db53d452dd_icon.png"
    },
    {
      "name": "Гэгээнтэн",

      "icon": "166",
      "location": {
        "address": {
          "street": "Зайсангийн гудамж ",
          "city": "Ulaanbaatar",
          "zipCode": 17013
        }
      },
      "opening": "9:00",
      "closing": "01:00",
      "image": "https://cdn6.aptoide.com/imgs/a/d/5/ad5233230d9d687e709b49db53d452dd_icon.png"
    },
    {
      "name": "prime-cineplex-1",

      "icon": "166",
      "location": {
        "address": {
          "street": "Khan-Uul District",
          "city": "Ulaanbaatar",
          "zipCode": 17023
        }
      },
      "opening": "9:00",
      "closing": "01:00",
      "image": "https://cdn6.aptoide.com/imgs/a/d/5/ad5233230d9d687e709b49db53d452dd_icon.png"
    },
    {
      "name": "prime-cineplex-2",

      "icon": "166",
      "location": {
        "address": {
          "street": "Bayanzurkh district",
          "city": "Ulaanbaatar",
          "zipCode": 13312
        }
      },
      "opening": "9:00",
      "closing": "01:00",
      "image": "https://cdn6.aptoide.com/imgs/a/d/5/ad5233230d9d687e709b49db53d452dd_icon.png"
    },
    {
      "name": "prime-cineplex-3",

      "icon": "166",
      "location": {
        "address": {
          "street": "Амгалангийн Ботаникийн цэцэрлэг",
          "city": "Ulaanbaatar",
          "zipCode": 13271
        }
      },
      "opening": "9:00",
      "closing": "01:00",
      "image": "https://cdn6.aptoide.com/imgs/a/d/5/ad5233230d9d687e709b49db53d452dd_icon.png"
    },
    {
      "name": "Тэнгис",

      "icon": "166",
      "location": {
        "address": {
          "street": "Tengis cinema",
          "city": "Ulaanbaatar",
          "zipCode": 15141
        }
      },
      "opening": "9:00",
      "closing": "01:00",
      "image": "https://www.zendmentravel.com/wp-content/uploads/2018/05/Urguu_3-original-original-.jpg"
    }
  ]
}
